{"type":"FeatureCollection","features":[{"type":"Feature","properties":{"name":"Vesuvius","icon":"v-0","sz":1},"geometry":{"type":"Point","coordinates":[14.426,40.821]}},{"type":"Feature","properties":{"name":"Etna","icon":"v-1","sz":1},"geometry":{"type":"Point","coordinates":[14.999,37.748]}},{"type":"Feature","properties":{"name":"Stromboli","icon":"v-2","sz":1},"geometry":{"type":"Point","coordinates":[15.213,38.789]}},{"type":"Feature","properties":{"name":"Thera","icon":"v-3","sz":1},"geometry":{"type":"Point","coordinates":[25.396,36.404]}},{"type":"Feature","properties":{"name":"Hekla","icon":"v-4","sz":1},"geometry":{"type":"Point","coordinates":[-19.666,63.992]}},{"type":"Feature","properties":{"name":"Teide","icon":"v-5","sz":1},"geometry":{"type":"Point","coordinates":[-16.642,28.272]}},{"type":"Feature","properties":{"name":"Elbrus","icon":"v-0","sz":1},"geometry":{"type":"Point","coordinates":[42.439,43.355]}},{"type":"Feature","properties":{"name":"Ararat","icon":"v-1","sz":1},"geometry":{"type":"Point","coordinates":[44.298,39.702]}},{"type":"Feature","properties":{"name":"Damavand","icon":"v-2","sz":1},"geometry":{"type":"Point","coordinates":[52.11,35.955]}},{"type":"Feature","properties":{"name":"Fuji","icon":"v-3","sz":1},"geometry":{"type":"Point","coordinates":[138.731,35.361]}},{"type":"Feature","properties":{"name":"Krakatoa","icon":"v-4","sz":1},"geometry":{"type":"Point","coordinates":[105.423,-6.102]}},{"type":"Feature","properties":{"name":"Pinatubo","icon":"v-5","sz":1},"geometry":{"type":"Point","coordinates":[120.35,15.13]}},{"type":"Feature","properties":{"name":"Kilimanjaro","icon":"v-0","sz":1},"geometry":{"type":"Point","coordinates":[37.355,-3.066]}},{"type":"Feature","properties":{"name":"Nyiragongo","icon":"v-1","sz":1},"geometry":{"type":"Point","coordinates":[29.25,-1.52]}},{"type":"Feature","properties":{"name":"Cotopaxi","icon":"v-2","sz":1},"geometry":{"type":"Point","coordinates":[-78.437,-0.684]}},{"type":"Feature","properties":{"name":"Popocatepetl","icon":"v-3","sz":1},"geometry":{"type":"Point","coordinates":[-98.622,19.023]}},{"type":"Feature","properties":{"name":"St. Helens","icon":"v-4","sz":1},"geometry":{"type":"Point","coordinates":[-122.18,46.2]}},{"type":"Feature","properties":{"name":"Mauna Loa","icon":"v-5","sz":1},"geometry":{"type":"Point","coordinates":[-155.608,19.475]}}]}