{"type":"FeatureCollection","features":[{"type":"Feature","properties":{"polity_id":"ainu","label":"Ainu","date_label":"2000 BCE \u2013 1500 BCE","flag_id":""},"geometry":{"type":"Point","coordinates":[143.278404617,43.464744173]}},{"type":"Feature","properties":{"polity_id":"afanasevo","label":"Afanasevo culture","date_label":"2000 BCE \u2013 1500 BCE","flag_id":""},"geometry":{"type":"Point","coordinates":[87.206300291,51.465216398]}},{"type":"Feature","properties":{"polity_id":"andronovo","label":"Andronovo","date_label":"2000 BCE \u2013 1500 BCE","flag_id":""},"geometry":{"type":"Point","coordinates":[70.185844954,46.370671831]}},{"type":"Feature","properties":{"polity_id":"austronesians","label":"Austronesian peoples","date_label":"2000 BCE \u2013 1500 BCE","flag_id":""},"geometry":{"type":"Point","coordinates":[114.691699056,1.328888558]}},{"type":"Feature","properties":{"polity_id":"bantu","label":"Bantu","date_label":"2000 BCE \u2013 1500 BCE","flag_id":""},"geometry":{"type":"Point","coordinates":[18.964268025,6.72072538]}},{"type":"Feature","properties":{"polity_id":"beaker","label":"beaker","date_label":"2000 BCE \u2013 1500 BCE","flag_id":""},"geometry":{"type":"Point","coordinates":[-1.616017943,54.087174975]}},{"type":"Feature","properties":{"polity_id":"canaan","label":"Canaan","date_label":"2000 BCE \u2013 1500 BCE","flag_id":""},"geometry":{"type":"Point","coordinates":[35.710944479,32.173348986]}},{"type":"Feature","properties":{"polity_id":"catacomb-culture","label":"Catacomb culture","date_label":"2000 BCE \u2013 1500 BCE","flag_id":""},"geometry":{"type":"Point","coordinates":[42.4088619,44.636899553]}},{"type":"Feature","properties":{"polity_id":"chinchorro-culture","label":"Chinchorro culture","date_label":"2000 BCE \u2013 1500 BCE","flag_id":""},"geometry":{"type":"Point","coordinates":[-69.018822926,-20.226490415]}},{"type":"Feature","properties":{"polity_id":"city-states","label":"City States of Arklyrell","date_label":"2000 BCE \u2013 1500 BCE","flag_id":""},"geometry":{"type":"Point","coordinates":[39.113827253,35.626973948]}},{"type":"Feature","properties":{"polity_id":"cycladic","label":"Cycladicama","date_label":"2000 BCE \u2013 1500 BCE","flag_id":""},"geometry":{"type":"Point","coordinates":[24.490839643,36.755914879]}},{"type":"Feature","properties":{"polity_id":"dravidians","label":"Dravidian people","date_label":"2000 BCE \u2013 1500 BCE","flag_id":""},"geometry":{"type":"Point","coordinates":[77.705749901,11.338580173]}},{"type":"Feature","properties":{"polity_id":"egypt","label":"Egypt","date_label":"2000 BCE \u2013 1500 BCE","flag_id":"egypt"},"geometry":{"type":"Point","coordinates":[32.293196381,25.47861639]}},{"type":"Feature","properties":{"polity_id":"elam","label":"Elam","date_label":"2000 BCE \u2013 1500 BCE","flag_id":""},"geometry":{"type":"Point","coordinates":[54.436578301,28.754456078]}},{"type":"Feature","properties":{"polity_id":"namazga","label":"Namazgah","date_label":"2000 BCE \u2013 1500 BCE","flag_id":""},"geometry":{"type":"Point","coordinates":[60.408882929,37.392212618]}},{"type":"Feature","properties":{"polity_id":"jomon","label":"J\u014dmon period","date_label":"2000 BCE \u2013 1500 BCE","flag_id":""},"geometry":{"type":"Point","coordinates":[137.506195919,35.407365404]}},{"type":"Feature","properties":{"polity_id":"hittites","label":"Hittites","date_label":"2000 BCE \u2013 1500 BCE","flag_id":""},"geometry":{"type":"Point","coordinates":[34.821243774,40.228745984]}},{"type":"Feature","properties":{"polity_id":"indus-valley-civilization","label":"Indus Valley Civilization","date_label":"2000 BCE \u2013 1500 BCE","flag_id":""},"geometry":{"type":"Point","coordinates":[66.5463079,26.186129887]}},{"type":"Feature","properties":{"polity_id":"kerma","label":"Kerma","date_label":"2000 BCE \u2013 1500 BCE","flag_id":""},"geometry":{"type":"Point","coordinates":[32.845514152,18.890138899]}},{"type":"Feature","properties":{"polity_id":"khoisan","label":"Khoisan","date_label":"2000 BCE \u2013 1500 BCE","flag_id":""},"geometry":{"type":"Point","coordinates":[24.482556818,-21.566581167]}},{"type":"Feature","properties":{"polity_id":"koreans","label":"Koreans","date_label":"2000 BCE \u2013 1500 BCE","flag_id":""},"geometry":{"type":"Point","coordinates":[126.298196003,39.468808733]}},{"type":"Feature","properties":{"polity_id":"minoan","label":"Minoan civilization","date_label":"2000 BCE \u2013 1500 BCE","flag_id":""},"geometry":{"type":"Point","coordinates":[24.399398176,35.322457873]}},{"type":"Feature","properties":{"polity_id":"norte-chico","label":"Norte Chico","date_label":"2000 BCE \u2013 1500 BCE","flag_id":""},"geometry":{"type":"Point","coordinates":[-74.306886147,-13.088070691]}},{"type":"Feature","properties":{"polity_id":"oxus","label":"Oxus","date_label":"2000 BCE \u2013 1500 BCE","flag_id":""},"geometry":{"type":"Point","coordinates":[65.754266725,38.635331313]}},{"type":"Feature","properties":{"polity_id":"semites","label":"Semitic people","date_label":"2000 BCE \u2013 1500 BCE","flag_id":""},"geometry":{"type":"Point","coordinates":[48.76438603,23.239530169]}},{"type":"Feature","properties":{"polity_id":"sintashta","label":"Sintashta","date_label":"2000 BCE \u2013 1500 BCE","flag_id":""},"geometry":{"type":"Point","coordinates":[59.523395035,50.97702453]}},{"type":"Feature","properties":{"polity_id":"thai","label":"Thailand","date_label":"2000 BCE \u2013 1500 BCE","flag_id":"thai"},"geometry":{"type":"Point","coordinates":[110.220791751,31.88229857]}},{"type":"Feature","properties":{"polity_id":"unetice","label":"\u00dan\u011btice","date_label":"2000 BCE \u2013 1500 BCE","flag_id":"unetice"},"geometry":{"type":"Point","coordinates":[11.012903463,52.141694516]}},{"type":"Feature","properties":{"polity_id":"ur","label":"Urdu","date_label":"2000 BCE \u2013 1500 BCE","flag_id":""},"geometry":{"type":"Point","coordinates":[45.014206829,32.551665317]}},{"type":"Feature","properties":{"polity_id":"valdivia","label":"Valdivia","date_label":"2000 BCE \u2013 1500 BCE","flag_id":"valdivia"},"geometry":{"type":"Point","coordinates":[-78.699573562,-0.30437795]}},{"type":"Feature","properties":{"polity_id":"xia","label":"Xia","date_label":"2000 BCE \u2013 1500 BCE","flag_id":""},"geometry":{"type":"Point","coordinates":[110.093311365,35.069943325]}}]}